City_ID,City,Lat,Lng,Max Temp,Humidity,Cloudiness,Wind Speed,Country,Date
0,howrah,22.5892,88.3103,22.0,78,6,3.09,IN,1703401418
1,kenai,60.5544,-151.2583,-0.48,100,100,10.29,US,1703401178
2,ulbroka,56.9411,24.2897,0.5,93,100,1.54,LV,1703401419
3,alofi,-19.0595,-169.9187,24.94,83,1,4.63,NU,1703401262
4,sidi akkacha,36.4647,1.3026,7.16,73,0,1.7,DZ,1703401420
5,grytviken,-54.2811,-36.5092,1.33,98,86,6.01,GS,1703401130
6,blackmans bay,-43.0167,147.3167,18.07,78,100,2.52,AU,1703401135
7,enewetak,11.3474,162.3373,27.43,81,40,11.19,MH,1703401146
8,adamstown,-25.066,-130.1015,22.81,95,100,7.23,PN,1703401127
9,tiksi,71.6872,128.8694,-21.81,90,100,5.53,RU,1703401133
10,port-aux-francais,-49.35,70.2167,5.75,71,100,9.13,TF,1703401134
11,puerto carreno,6.189,-67.4859,25.98,83,91,1.3,CO,1703401422
12,kermit,31.8576,-103.0927,10.49,51,1,4.53,US,1703401422
13,yamada,39.4667,141.95,2.23,73,100,2.32,JP,1703401422
14,ushuaia,-54.8,-68.3,6.81,87,75,12.86,AR,1703401126
15,bilibino,68.0546,166.4372,-37.62,100,92,0.75,RU,1703401166
16,jiexiu,37.0244,111.9125,-3.1,51,0,3.18,CN,1703401423
17,utrik,11.2278,169.8474,26.99,82,79,10.56,MH,1703401161
18,fort st. john,56.2499,-120.8529,-2.06,59,40,5.66,CA,1703401424
19,peniche,39.3558,-9.3811,9.14,69,5,3.22,PT,1703401424
20,brokopondo,4.75,-55.1667,24.56,93,97,2.13,SR,1703401425
21,as sulayyil,20.4607,45.5779,22.14,34,0,4.6,SA,1703401194
22,priozersk,61.0393,30.1291,-0.51,94,100,0.64,RU,1703401425
23,sandnessjoen,66.0217,12.6316,-12.71,73,98,3.91,NO,1703401403
24,waitangi,-43.9535,-176.5597,14.34,83,100,1.79,NZ,1703401130
25,tromso,69.6496,18.957,-0.99,74,75,6.69,NO,1703401426
26,wamba,8.9333,8.6,23.79,22,72,0.57,NG,1703401426
27,sabang,5.8933,95.3214,26.74,84,100,8.45,ID,1703401427
28,saint-pierre,-21.3393,55.4781,31.21,58,0,2.06,RE,1703401427
29,bethel,41.3712,-73.414,3.84,74,75,0.0,US,1703401135
30,martapura,-3.4167,114.85,33.05,62,40,2.57,ID,1703401428
31,tsengel,49.4783,100.8894,-11.65,78,61,1.26,MN,1703401429
32,duminichi,53.9345,35.1099,-4.68,96,99,2.77,RU,1703401429
33,lashio,22.9333,97.75,23.98,49,35,1.62,MM,1703401429
34,anadyr,64.75,177.4833,-29.72,74,0,3.0,RU,1703401140
35,malvan,16.0667,73.4667,31.08,34,38,1.71,IN,1703401430
36,port elizabeth,-33.918,25.5701,23.94,78,20,4.63,ZA,1703401132
37,badger,64.8,-147.5333,-6.86,92,40,0.0,US,1703401187
38,nieuw amsterdam,5.8833,-55.0833,25.57,90,84,2.51,SR,1703401431
39,sao luiz gonzaga,-28.4083,-54.9608,21.45,96,0,1.87,BR,1703401431
40,edinburgh of the seven seas,-37.0676,-12.3116,15.81,94,100,11.16,SH,1703401148
41,sungai penuh,-2.0833,101.3833,23.45,88,100,1.17,ID,1703401432
42,horsley,54.9833,-1.85,13.38,82,75,11.32,GB,1703401432
43,avarua,-21.2078,-159.775,24.03,78,14,5.14,CK,1703401165
44,sambava,-14.2667,50.1667,30.43,62,10,2.83,MG,1703401433
45,east wenatchee bench,47.4257,-120.2812,-0.94,85,0,0.0,US,1703401433
46,piti village,13.4626,144.6933,29.49,75,40,9.77,GU,1703401433
47,yuzhno-kurilsk,44.0306,145.8556,-4.24,67,100,7.08,RU,1703401243
48,thompson,55.7435,-97.8558,-4.92,89,100,3.45,CA,1703401187
49,andergrove,-21.0833,149.1833,27.27,87,96,7.96,AU,1703401435
50,mudgee,-32.5943,149.5871,26.55,39,28,3.75,AU,1703401435
51,chonchi,-42.6128,-73.8092,9.51,95,96,1.68,CL,1703401254
52,weno,7.4515,151.8468,28.97,74,40,3.6,FM,1703401210
53,potam,27.6,-110.3833,16.34,53,0,3.63,MX,1703401436
54,san patricio,28.017,-97.5169,21.02,92,70,4.57,US,1703401401
55,poronaysk,49.2167,143.1167,-19.38,93,7,1.2,RU,1703401193
56,remire-montjoly,4.9167,-52.2667,25.02,94,75,3.6,GF,1703401437
57,olyokminsk,60.3736,120.4264,-14.88,98,100,1.33,RU,1703401437
58,khandyga,62.6667,135.6,-43.16,100,68,0.79,RU,1703401146
59,vila franca do campo,37.7167,-25.4333,17.23,73,86,2.4,PT,1703401395
60,mulayjah,27.271,48.4242,22.34,50,0,2.97,SA,1703401438
61,aral,40.5156,81.2636,1.25,30,0,2.02,CN,1703401439
62,novo milosevo,45.7217,20.3031,3.87,86,100,2.49,RS,1703401440
63,pasuquin,18.3328,120.6177,25.97,73,40,10.8,PH,1703401440
64,murzuq,25.9155,13.9184,9.92,47,0,2.86,LY,1703401441
65,oltinko'l,40.8011,72.1634,8.43,39,100,0.57,UZ,1703401441
66,urangan,-25.3,152.9,25.42,81,56,7.31,AU,1703401156
67,lycksele,64.5954,18.6735,-8.65,92,75,2.57,SE,1703401442
68,badiyah,22.45,58.8,22.91,53,0,1.08,OM,1703401442
69,west island,-12.1568,96.8225,28.99,74,100,3.6,CC,1703401159
70,mazagao,-0.115,-51.2894,27.03,97,55,1.19,BR,1703401375
71,olonkinbyen,70.9221,-8.7187,-1.52,72,100,17.12,SJ,1703401227
72,carnot,4.9409,15.8665,26.62,25,97,1.64,CF,1703401444
73,georgetown,5.4112,100.3354,27.96,89,20,3.6,MY,1703401199
74,whitehorse,60.7161,-135.0538,-1.57,86,100,10.29,CA,1703401292
75,yellowknife,62.456,-114.3525,-19.28,91,0,1.03,CA,1703400950
76,egilsstadir,65.2653,-14.3948,-6.05,79,75,3.6,IS,1703401152
77,stanley,54.868,-1.6985,12.51,80,100,10.04,GB,1703401160
78,taulaga,-11.0553,-171.0883,28.76,73,82,2.39,AS,1703401445
79,flying fish cove,-10.4217,105.6791,29.82,65,75,3.6,CX,1703401179
80,saipan,15.1355,145.701,29.39,70,20,9.77,MP,1703401197
81,touros,-5.1989,-35.4608,26.11,78,100,4.31,BR,1703401446
82,kafue,-15.7691,28.1814,26.81,60,100,2.3,ZM,1703401264
83,puerto armuelles,8.2833,-82.8667,26.72,72,98,0.45,PA,1703401448
84,duong dong,10.2167,103.9667,28.0,61,40,4.63,VN,1703401448
85,margaret river,-33.95,115.0667,24.73,46,0,5.91,AU,1703401131
86,tura,25.5198,90.2201,24.85,43,6,1.63,IN,1703401150
87,thabazimbi,-24.5917,27.4116,30.98,34,16,4.2,ZA,1703401449
88,constantia,44.1833,28.65,1.5,66,9,5.35,RO,1703401172
89,invercargill,-46.4,168.35,17.71,82,100,1.74,NZ,1703401165
90,kapa'a,22.0752,-159.319,24.18,82,100,8.23,US,1703400903
91,tadine,-21.55,167.8833,25.66,75,9,5.12,NC,1703401450
92,hermanus,-34.4187,19.2345,23.22,70,18,5.03,ZA,1703401143
93,ola,59.5833,151.2833,-15.91,94,74,4.82,RU,1703401179
94,ilulissat,69.2167,-51.1,-15.99,51,100,4.63,GL,1703401225
95,santos dumont,-21.4567,-43.5525,18.76,97,100,1.52,BR,1703401452
96,albany,42.6001,-73.9662,3.15,79,100,1.15,US,1703401192
97,termas de rio hondo,-27.4998,-64.8604,24.58,85,100,1.54,AR,1703401453
98,old saybrook,41.2918,-72.3762,6.13,86,0,0.0,US,1703401453
99,tynda,55.1667,124.7167,-24.84,97,95,0.87,RU,1703401389
100,college,64.8569,-147.8028,-6.82,85,75,1.54,US,1703401159
101,kruisfontein,-34.0033,24.7314,22.71,58,43,3.41,ZA,1703401140
102,rio verde de mato grosso,-18.9181,-54.8442,24.21,80,93,1.75,BR,1703401455
103,lorengau,-2.0226,147.2712,28.36,76,100,2.37,PG,1703401172
104,hawaiian paradise park,19.5933,-154.9731,21.13,94,75,2.06,US,1703401151
105,upata,8.0086,-62.3989,24.0,95,100,2.11,VE,1703401150
106,pohang,36.0322,129.365,2.76,49,28,4.84,KR,1703401456
107,oulmes,33.4258,-6.0014,4.39,40,0,1.43,MA,1703401456
108,lebu,-37.6167,-73.65,11.87,90,5,8.22,CL,1703401181
109,sao joao da barra,-21.6403,-41.0511,23.87,92,100,3.81,BR,1703401457
110,kalevala,65.2,31.1667,-0.51,98,100,4.02,RU,1703401458
111,kodiak,57.79,-152.4072,-0.27,80,100,12.86,US,1703401170
112,brezina,33.0989,1.2608,6.57,45,0,1.01,DZ,1703401459
113,la arena,-5.3466,-80.7109,22.87,73,53,4.63,PE,1703401459
114,klyuchi,52.2667,79.1667,-5.48,86,85,2.91,RU,1703401153
115,honaz,37.7573,29.27,4.93,52,0,1.61,TR,1703401460
116,port lincoln,-34.7333,135.8667,17.11,63,3,9.29,AU,1703401182
117,ribeira grande,38.5167,-28.7,16.98,68,100,6.56,PT,1703401167
118,udachny,66.4167,112.4,-25.85,100,99,0.73,RU,1703401377
119,sur,22.5667,59.5289,24.09,60,0,1.89,OM,1703401461
120,liman,48.9884,37.8023,-1.33,83,99,6.13,UA,1703401461
121,leninskoye,41.7589,69.3864,13.42,43,100,2.94,KZ,1703401462
122,keflavik,64.0049,-22.5624,-4.05,74,75,9.77,IS,1703401141
123,nichinan,31.6,131.3667,11.82,50,72,3.21,JP,1703401462
124,soure,-0.7167,-48.5233,27.71,76,100,5.56,BR,1703401463
125,kurchum,48.5722,83.6542,-4.5,77,99,0.89,KZ,1703401463
126,coahuayana de hidalgo,18.7,-103.6583,22.29,92,37,1.61,MX,1703401171
127,iqaluit,63.7506,-68.5145,-10.15,73,100,0.0,CA,1703401140
128,blackfoot,43.1905,-112.345,-3.55,95,75,2.53,US,1703401464
129,ketchikan,55.3422,-131.6461,7.26,81,100,12.35,US,1703401464
130,tolanaro,-25.0319,46.9987,28.04,54,40,5.14,MG,1703401172
131,motueka,-41.1333,173.0167,19.44,95,100,3.12,NZ,1703401257
132,greymouth,-42.4667,171.2,18.31,96,100,4.92,NZ,1703401465
133,puerto natales,-51.7236,-72.4875,8.82,85,100,4.29,CL,1703401133
134,laguna,38.421,-121.4238,8.94,93,100,0.0,US,1703401228
135,homberg,51.0333,9.4,9.12,87,100,8.23,DE,1703401466
136,vilyuchinsk,52.9306,158.4028,-12.82,67,100,4.31,RU,1703401144
137,bima,-8.4667,118.7167,30.89,69,100,1.73,ID,1703401467
138,iskateley,67.6803,53.1512,-8.32,87,99,5.36,RU,1703401143
139,taltal,-25.4,-70.4833,17.19,81,73,0.62,CL,1703401274
140,dunedin,-45.8742,170.5036,19.25,83,100,4.01,NZ,1703401183
141,riverside,33.7333,-116.0508,11.44,90,0,1.54,US,1703400731
142,jose pedro varela,-33.45,-54.5333,16.71,84,100,1.25,UY,1703401468
143,portstewart,55.1813,-6.714,11.11,86,100,13.24,GB,1703401468
144,tazovsky,67.4667,78.7,-13.39,97,100,2.48,RU,1703401159
145,hami,42.8,93.45,-4.24,49,7,1.39,CN,1703401469
146,fort bragg,35.139,-79.006,6.56,81,75,0.0,US,1703401396
147,port augusta,-32.5,137.7667,22.27,36,5,11.89,AU,1703401469
148,ginir,7.1333,40.7,20.74,50,60,2.77,ET,1703401470
149,abepura,-2.6333,140.5833,30.45,58,20,3.09,ID,1703401470
150,papatowai,-46.5619,169.4708,18.69,80,100,3.09,NZ,1703401471
151,mamadysh,55.7152,51.408,-1.4,93,100,3.54,RU,1703401471
152,bredasdorp,-34.5322,20.0403,22.82,62,51,5.4,ZA,1703401145
153,nova sintra,14.8667,-24.7167,20.34,66,95,4.57,CV,1703401131
154,alpine,32.835,-116.7664,10.67,93,40,0.0,US,1703401472
155,grand falls-windsor,48.9332,-55.6649,-3.61,88,100,1.34,CA,1703401472
156,yurty,56.0498,97.6348,-4.01,93,100,3.47,RU,1703401472
157,malpe,13.35,74.7167,31.61,34,80,1.75,IN,1703401473
158,ar ruways,24.1103,52.7306,24.16,36,100,1.77,AE,1703401473
159,west plains,36.7281,-91.8524,14.46,87,100,3.6,US,1703401473
160,bikenibeu village,1.3673,173.1241,28.98,84,75,3.09,KI,1703401474
161,empangeni,-28.762,31.8933,27.38,73,76,3.79,ZA,1703401474
162,aldan,58.6031,125.3894,-17.92,97,100,2.05,RU,1703401475
163,piacabucu,-10.4056,-36.4344,25.78,82,93,2.02,BR,1703401475
164,pokhara,28.2333,83.9833,21.39,37,0,2.62,NP,1703401475
165,dolores,-36.3132,-57.6792,17.18,95,82,1.53,AR,1703401476
166,dudinka,69.4058,86.1778,-19.62,100,100,2.68,RU,1703401155
167,isafjordur,66.0755,-23.124,-7.27,93,100,14.64,IS,1703401186
168,grand baie,-20.0182,57.5802,30.26,76,100,1.34,MU,1703401266
169,arraial do cabo,-22.9661,-42.0278,24.18,92,100,2.33,BR,1703401477
170,puerto baquerizo moreno,-0.9,-89.6,24.21,85,10,4.93,EC,1703401250
171,bardai,11.65,7.2333,15.5,26,100,6.14,NG,1703401167
172,santa cruz,-17.8,-63.1667,25.7,89,75,5.14,BO,1703401240
173,lovington,32.944,-103.3485,6.68,92,0,0.89,US,1703401478
174,port mathurin,-19.6833,63.4167,26.92,76,100,6.17,MU,1703400919
175,dzyarzhynsk,53.6832,27.138,-1.83,91,81,6.38,BY,1703401478
176,ozherel'ye,54.7961,38.2672,-1.34,95,100,3.89,RU,1703401479
177,uturoa,-16.7333,-151.4333,26.1,87,100,5.48,PF,1703401186
178,cochin,9.9399,76.2602,31.99,54,100,1.04,IN,1703401450
179,pisco,-13.7,-76.2167,20.03,88,0,1.03,PE,1703401480
180,gadani,25.1185,66.7299,26.12,21,4,5.12,PK,1703401480
181,mar del plata,-38.0023,-57.5575,18.94,87,100,4.92,AR,1703401466
182,vorgashor,67.5833,63.95,-16.02,94,29,2.75,RU,1703401174
183,minas de marcona,-15.2119,-75.1103,16.5,89,100,3.72,PE,1703401163
184,praia da vitoria,38.7333,-27.0667,17.09,72,75,4.41,PT,1703401411
185,manismata,-2.4667,111.0333,31.38,63,100,0.76,ID,1703401482
186,pago pago,-14.2781,-170.7025,27.27,78,93,9.41,AS,1703401242
187,vernon,50.2581,-119.2691,-2.26,89,56,2.57,CA,1703401296
188,jenison,42.9072,-85.792,7.41,96,100,1.34,US,1703401483
189,yacuiba,-22.038,-63.6797,23.95,84,38,1.34,BO,1703401483
190,pemangkat,1.1667,108.9667,27.91,81,100,3.96,ID,1703401483
191,puerto ayora,-0.7393,-90.3518,24.19,98,61,1.34,EC,1703401131
192,tchibanga,-2.85,11.0333,25.17,91,84,0.65,GA,1703401484
193,mana,5.6592,-53.7767,24.97,92,75,2.87,GF,1703401485
194,brookings,44.3114,-96.7984,9.47,97,100,8.23,US,1703401274
195,mount gambier,-37.8333,140.7667,15.13,78,100,6.84,AU,1703401390
196,mermoz boabab,14.7065,-17.4758,21.88,78,0,4.12,SN,1703401261
197,polyarnyy,69.1989,33.4478,-1.05,88,100,6.63,RU,1703401247
198,araguaina,-7.1911,-48.2072,25.56,63,100,1.18,BR,1703401203
199,lock haven,41.137,-77.4469,6.1,88,100,1.23,US,1703401486
200,ad dabbah,18.05,30.95,18.56,36,0,6.1,SD,1703401487
201,conceicao do mato dentro,-19.0372,-43.425,19.89,99,100,2.02,BR,1703401487
202,jamestown,42.097,-79.2353,6.77,100,100,3.09,US,1703401488
203,kuching,1.55,110.3333,30.12,92,40,4.12,MY,1703401452
204,shevchenko,48.5,35.0,-0.1,75,95,5.46,UA,1703401489
205,tres de maio,-27.7733,-54.24,20.44,94,0,1.55,BR,1703401489
206,saldanha,-33.0117,17.9442,22.03,78,0,4.36,ZA,1703401489
207,nishinoomote,30.7333,131.0,13.31,58,75,4.12,JP,1703401489
208,mount pearl,47.5166,-52.7813,-3.15,83,40,7.2,CA,1703401407
209,san pedro pochutla,15.7333,-96.4667,20.76,48,24,1.87,MX,1703401174
210,richards bay,-28.783,32.0377,26.7,79,100,4.32,ZA,1703401217
211,aykhal,66.0,111.5,-19.84,99,100,0.88,RU,1703401490
212,burao,9.5221,45.5336,23.36,58,8,2.35,SO,1703401491
213,fortuna,40.5982,-124.1573,4.64,100,0,0.0,US,1703401179
214,boiling springs,35.0465,-81.9818,8.93,86,0,0.0,US,1703401491
215,taylorville,39.5489,-89.2945,10.48,100,100,3.6,US,1703401492
216,jose maria morelos,23.3952,-103.8984,6.98,91,98,3.45,MX,1703401492
217,corn island,12.1694,-83.0418,26.71,83,100,5.69,NI,1703401492
218,lander,42.833,-108.7307,-3.55,88,100,0.0,US,1703401470
219,ma'an,26.9775,110.7211,9.95,26,80,1.77,CN,1703401493
220,nogliki,51.8333,143.1667,-18.14,87,39,4.92,RU,1703401493
221,cidreira,-30.1811,-50.2056,22.36,87,86,2.27,BR,1703401494
222,terek,43.4833,44.1361,3.32,76,99,2.83,RU,1703401494
223,qaqortoq,60.7167,-46.0333,-8.31,73,100,4.01,GL,1703401152
224,east london,-33.0153,27.9116,22.52,83,75,5.14,ZA,1703401495
225,cadale,2.7603,46.3222,28.58,69,46,7.87,SO,1703401495
226,yarmouth,41.7057,-70.2286,5.57,83,75,1.54,US,1703401496
227,tosham,28.8833,75.9167,23.19,26,9,2.16,IN,1703401496
228,male,4.1748,73.5089,30.97,74,20,7.2,MV,1703401265
229,yashan,22.1975,109.9419,16.53,31,35,5.36,CN,1703401497
230,trondheim,63.4305,10.3951,-1.95,94,99,2.54,NO,1703401208
231,yinchuan,38.4681,106.2731,-3.28,44,0,0.34,CN,1703401399
232,sagua la grande,22.8067,-80.0756,20.55,82,91,4.85,CU,1703401498
233,pekan,3.4836,103.3996,28.06,90,100,4.22,MY,1703401498
234,loen,7.7601,168.2307,27.62,78,16,9.0,MH,1703401499
235,chimbote,-9.0853,-78.5783,20.61,86,81,3.14,PE,1703401420
236,dunda,-8.1167,34.25,22.92,83,100,0.73,TZ,1703401499
237,giyani,-23.3025,30.7187,29.26,52,7,2.18,ZA,1703401499
238,cacheu,12.2706,-16.1658,18.05,36,49,2.65,GW,1703401500
239,monrovia,6.3005,-10.7969,23.87,86,97,1.8,LR,1703401495
240,atafu village,-8.5421,-172.5159,29.4,74,95,4.4,TK,1703401151
241,erenhot,43.6475,111.9767,-11.97,81,4,4.1,CN,1703401501
242,sitka,57.0531,-135.33,6.94,76,100,10.29,US,1703401138
243,afaahiti,-17.75,-149.2833,23.93,85,100,5.22,PF,1703401191
244,fortaleza,-3.7227,-38.5247,27.9,83,40,4.12,BR,1703401202
245,hammerfest,70.6634,23.6821,-0.75,86,75,11.32,NO,1703401502
246,longyearbyen,78.2186,15.6401,-18.09,60,0,7.2,SJ,1703401101
247,ambodifotatra,-16.9833,49.85,30.03,70,75,1.03,MG,1703401503
248,dukku,10.8231,10.7717,17.82,26,45,3.25,NG,1703401503
249,kapuskasing,49.4169,-82.4331,2.05,93,100,3.6,CA,1703401224
250,portland,45.5234,-122.6762,5.34,88,100,4.02,US,1703401146
251,kristiansund,63.1115,7.732,-2.64,93,40,2.06,NO,1703401504
252,al ghayzah,16.2079,52.176,24.79,61,72,3.32,YE,1703401505
253,punta arenas,-53.15,-70.9167,9.06,81,75,10.8,CL,1703401138
254,margate,51.3813,1.3862,12.71,84,100,4.92,GB,1703401335
255,gereida,11.2811,25.1414,22.02,18,36,8.55,SD,1703401506
256,rawson,-43.3002,-65.1023,16.42,48,13,6.48,AR,1703401200
257,spas-klepiki,55.1347,40.1767,-2.22,95,99,4.06,RU,1703401506
258,capitao poco,-1.7464,-47.0594,23.2,98,31,2.15,BR,1703401506
259,acarau,-2.8856,-40.12,26.86,78,37,5.95,BR,1703401507
260,salekhard,66.53,66.6019,-24.14,100,100,1.25,RU,1703401507
261,kenora,49.8167,-94.4337,3.54,100,100,5.14,CA,1703401508
262,ha'il,27.5219,41.6907,9.01,71,0,3.09,SA,1703401074
263,wailua homesteads,22.0669,-159.378,23.44,79,100,8.23,US,1703401147
264,turan,16.0678,108.2208,18.99,94,75,1.54,VN,1703401508
265,kimbe,-5.5502,150.1429,26.76,90,100,1.13,PG,1703401509
266,lihue,21.9789,-159.3672,23.77,76,100,8.23,US,1703401168
267,turuntayevo,52.2,107.6167,-12.95,91,96,1.72,RU,1703401509
268,st. john's,47.5649,-52.7093,-2.69,81,40,7.2,CA,1703400987
269,san antonio de pale,-1.4014,5.6325,27.54,80,100,2.84,GQ,1703401166
270,port moresby,-9.4431,147.1797,32.68,62,40,5.14,PG,1703401328
271,ust-nera,64.5667,143.2,-41.01,99,81,1.77,RU,1703401164
272,jampur,29.6441,70.5954,24.77,19,98,2.59,PK,1703401239
273,hithadhoo,-0.6,73.0833,28.43,75,42,2.96,MV,1703401223
274,greenville,35.6127,-77.3663,2.09,100,0,0.0,US,1703401511
275,san jose,37.3394,-121.895,10.48,77,0,2.57,US,1703401078
276,laguna salada,19.6483,-71.0945,19.34,94,65,1.56,DO,1703401512
277,ulladulla,-35.35,150.4667,19.31,86,92,4.84,AU,1703401133
278,talnakh,69.4865,88.3972,-13.92,96,100,1.47,RU,1703401173
279,port alfred,-33.5906,26.891,22.32,83,99,1.34,ZA,1703400859
280,madalena,41.2162,-8.3345,5.26,82,0,1.85,PT,1703401513
281,rongelap,11.1635,166.8941,27.19,76,18,9.67,MH,1703401400
282,darwin,-12.4611,130.8418,35.03,70,20,8.75,AU,1703401354
283,holualoa,19.6228,-155.9522,20.91,86,0,3.09,US,1703401514
284,murud,18.3258,72.965,31.56,24,75,1.46,IN,1703401514
285,petropavlovsk-kamchatsky,53.0452,158.6483,-13.64,73,20,5.36,RU,1703401169
286,curuca,-0.7289,-47.8481,24.97,90,99,2.25,BR,1703401514
287,haiku-pauwela,20.9219,-156.3051,22.25,76,0,8.23,US,1703401515
288,zhosaly,45.4878,64.0781,7.02,57,29,5.66,KZ,1703401515
289,san juan,-31.5375,-68.5364,23.36,73,60,3.17,AR,1703401234
290,salinopolis,-0.6136,-47.3561,26.64,82,78,5.26,BR,1703401147
291,hamilton,39.1834,-84.5333,9.89,95,100,1.54,US,1703400913
292,north bend,43.4065,-124.2243,4.92,87,0,4.12,US,1703401516
293,ingeniero jacobacci,-41.3427,-69.5448,15.3,43,0,2.38,AR,1703401516
294,bamboo flat,11.7,92.7167,29.05,70,40,4.63,IN,1703401517
295,christchurch,-43.5333,172.6333,24.15,70,100,4.63,NZ,1703401085
296,yoloten,37.2989,62.3597,22.51,27,0,14.55,TM,1703401171
297,ancud,-41.8697,-73.8203,8.29,90,1,0.88,CL,1703401199
298,kingston,17.997,-76.7936,25.53,82,20,3.09,JM,1703401290
299,codrington,-38.2667,141.9667,15.85,78,100,8.3,AU,1703401169
300,maitum,6.0392,124.4986,29.37,73,77,2.44,PH,1703401518
301,harstad,68.799,16.5293,-1.58,76,100,2.08,NO,1703401394
302,huilong,31.8111,121.655,4.54,40,0,5.67,CN,1703401519
303,road town,18.4167,-64.6167,25.76,71,13,1.0,VG,1703401137
304,new norfolk,-42.7826,147.0587,18.72,73,100,1.73,AU,1703401146
305,kavali,14.9167,79.9833,26.99,63,51,4.92,IN,1703401519
306,castillos,-34.1667,-53.8333,16.35,91,100,1.67,UY,1703401520
307,san martin,-33.081,-68.4681,22.43,70,21,3.56,AR,1703401520
308,carpentersville,42.1211,-88.2579,10.23,93,100,1.54,US,1703401521
309,igarka,67.4667,86.5833,-20.89,100,85,1.89,RU,1703401521
310,makarov,48.6333,142.8,-12.67,73,2,2.67,RU,1703401521
311,sisimiut,66.9395,-53.6735,-12.49,80,100,3.03,GL,1703401249
312,armacao de buzios,-22.7469,-41.8817,24.03,93,100,1.2,BR,1703401522
313,lajere,11.9797,11.4443,18.01,27,4,4.43,NG,1703401522
314,craig,40.5153,-107.5464,-5.03,86,100,4.12,US,1703401522
315,nizhnesortymskiy,62.4397,71.7603,-3.1,96,100,7.18,RU,1703401523
316,tindouf,27.6711,-8.1474,8.25,42,0,2.57,DZ,1703401523
317,isla mujeres,21.2311,-86.731,24.03,66,33,6.21,MX,1703401524
318,borzya,50.3833,116.5167,-21.64,97,14,0.7,RU,1703401524
319,saint-francois,46.4154,3.9054,7.04,100,100,3.09,FR,1703401524
320,kone,-21.0595,164.8658,28.74,70,47,1.11,NC,1703401525
321,sinop,41.7711,34.8709,-0.4,97,100,4.91,TR,1703401525
322,molde,62.7375,7.1591,-3.09,93,100,4.63,NO,1703401526
323,geraldton,-28.7667,114.6,35.23,28,0,9.26,AU,1703401526
324,rtishchevo,52.2604,43.7874,-1.8,94,100,2.72,RU,1703401527
325,monte alegre de minas,-18.8706,-48.8808,21.0,87,100,2.03,BR,1703401527
326,fisterra,42.9049,-9.2629,10.01,74,93,2.03,ES,1703401528
327,balqash,46.8481,74.995,-2.67,74,0,6.0,KZ,1703401199
328,estevan,49.1334,-102.9842,-0.81,93,100,9.26,CA,1703401529
329,namibe,-15.1961,12.1522,24.61,76,100,0.75,AO,1703401169
330,usogorsk,63.4106,48.6872,0.37,96,100,4.81,RU,1703401529
331,borgo,46.0514,11.4544,7.34,63,0,2.16,IT,1703401530
332,abbeville,50.1,1.8333,11.25,91,100,11.03,FR,1703401530
333,raduzhny,62.0961,77.475,-3.5,95,100,3.49,RU,1703401530
334,am timan,11.0297,20.2827,25.82,22,36,2.71,TD,1703401531
335,kudat,6.8837,116.8477,30.96,74,20,3.6,MY,1703401532
336,okha,53.5739,142.9478,-25.67,96,94,2.89,RU,1703401532
337,queenstown,-31.8976,26.8753,23.59,63,65,0.97,ZA,1703401532
338,uberlandia,-18.9186,-48.2772,19.56,94,75,3.09,BR,1703401532
339,nagqu,31.5,92.0,-2.14,42,100,3.51,CN,1703401410
340,basco,20.4487,121.9702,23.62,73,100,11.59,PH,1703401533
341,qarauyl,48.9451,79.255,2.45,56,89,3.49,KZ,1703401534
342,carnarvon,-24.8667,113.6333,25.8,66,3,6.66,AU,1703401138
343,paradip garh,20.3167,86.6167,25.04,52,76,2.37,IN,1703401196
344,deniliquin,-35.5333,144.9667,31.27,19,100,5.7,AU,1703401535
345,talara,-4.5772,-81.2719,21.6,82,83,6.37,PE,1703401535
346,nemuro,43.3236,145.575,-4.17,59,7,4.2,JP,1703401535
347,dubbo,-32.25,148.6167,29.07,45,40,2.57,AU,1703401535
348,taiyuan,37.8694,112.5603,-4.08,39,0,3.0,CN,1703401536
349,soanierana ivongo,-16.9167,49.5833,30.01,80,100,0.45,MG,1703401536
350,ironwood,46.4547,-90.171,5.45,87,100,2.06,US,1703401536
351,aripuana,-9.1667,-60.6333,23.11,97,100,0.84,BR,1703401127
352,berezovyy,51.6667,135.7,-24.8,97,66,0.45,RU,1703401157
353,laascaanood,8.4774,47.3597,24.9,58,6,3.94,SO,1703401537
354,kailua-kona,19.6406,-155.9956,22.5,85,7,0.89,US,1703401256
355,luderitz,-26.6481,15.1594,16.61,81,98,10.3,NA,1703401253
356,marion,39.7684,-86.1555,10.16,95,100,2.06,US,1703401538
357,coari,-4.085,-63.1414,23.98,94,50,0.86,BR,1703401503
358,qarah bagh,34.9402,61.7759,17.98,32,1,12.7,AF,1703401538
359,mascote,-15.5631,-39.3025,21.96,93,85,0.87,BR,1703401539
360,nuku'alofa,-21.1333,-175.2,25.19,78,20,5.14,TO,1703401539
361,foggia,41.45,15.5333,13.04,67,0,8.23,IT,1703401539
362,hasaki,35.7333,140.8333,10.16,45,96,2.26,JP,1703401540
363,shingu,33.7333,135.9833,10.38,56,17,2.7,JP,1703401540
364,toliara,-23.35,43.6667,31.15,44,0,3.86,MG,1703401540
365,mejit,10.2753,170.8646,27.06,79,100,9.9,MH,1703401540
366,tshikapa,-6.4167,20.8,22.51,92,100,0.8,CD,1703401541
367,crane,31.3974,-102.3501,13.04,90,28,3.66,US,1703401184
368,northam,51.0333,-4.2167,12.99,99,100,11.65,GB,1703401139
369,yelizovo,53.1873,158.3805,-12.89,50,20,2.0,RU,1703401541
370,callao,-12.0667,-77.15,22.62,73,75,3.6,PE,1703401502
371,nar'yan-mar,67.6713,53.087,-8.27,87,99,5.36,RU,1703401190
372,chinde,26.8418,88.0763,22.17,32,0,2.86,NP,1703401542
373,muisne,0.6,-80.0333,24.6,92,100,1.54,EC,1703401543
374,nguigmi,14.2495,13.1092,17.03,30,0,6.09,NE,1703401543
375,sola,-13.8833,167.55,28.26,77,73,4.86,VU,1703401544
376,demba,-5.51,22.2667,23.4,86,100,1.07,CD,1703401544
377,palikir - national government center,6.9248,158.1611,27.51,77,100,8.78,FM,1703401544
378,gizo,-8.103,156.8419,29.17,70,100,2.95,SB,1703401246
379,socorro,31.6546,-106.3033,10.56,55,20,9.77,US,1703401545
380,puerto leguizamo,-0.1934,-74.7819,22.55,99,100,0.52,CO,1703401545
381,acatlan de osorio,18.2,-98.05,17.26,46,92,0.83,MX,1703401545
382,warsaw,52.2298,21.0118,0.91,88,75,2.57,PL,1703401545
383,khromtau,50.2503,58.4347,-2.08,95,69,3.88,KZ,1703401546
384,smithers,54.7804,-127.1743,-0.82,74,100,3.09,CA,1703401323
385,linkou,45.3,130.2833,-14.51,91,99,1.94,CN,1703401547
386,tikhvin,59.6451,33.5294,-0.99,97,100,2.69,RU,1703401547
387,bandarbeyla,9.4942,50.8122,26.79,62,13,6.98,SO,1703401189
388,aragarcas,-15.8975,-52.2508,22.19,93,84,0.4,BR,1703401353
389,vinh,18.6667,105.6667,16.43,53,100,4.57,VN,1703401548
390,norrtalje,59.758,18.705,-7.21,95,34,2.15,SE,1703401277
391,yung shue wan,22.2333,114.1167,19.79,50,6,5.9,HK,1703401548
392,kargasok,59.0556,80.8572,-2.24,98,100,0.89,RU,1703401549
393,san felipe,10.3399,-68.7425,22.83,98,98,1.08,VE,1703401549
394,antonio enes,-16.2325,39.9086,31.39,60,19,2.05,MZ,1703401349
395,nikolayevsk-on-amure,53.1406,140.73,-24.64,95,80,1.94,RU,1703401404
396,port hedland,-20.3167,118.5667,34.03,46,0,10.29,AU,1703401244
397,meridian,43.6121,-116.3915,-1.7,87,0,4.12,US,1703401551
398,kuqa,41.7278,82.9364,-1.85,45,0,0.92,CN,1703401551
399,lethem,3.3803,-59.7968,25.21,83,21,3.75,GY,1703401551
400,tsiombe,-25.3,45.4833,28.71,40,0,6.97,MG,1703401551
401,xai-xai,-25.0519,33.6442,29.78,57,13,1.76,MZ,1703401552
402,i-n-salah,27.1935,2.4607,10.46,41,50,4.08,DZ,1703401154
403,hadibu,12.65,54.0333,26.1,62,32,4.06,YE,1703401341
404,oltu,40.5498,42.0013,2.36,54,2,6.01,TR,1703401552
405,gbarnga,6.9956,-9.4722,17.46,72,61,0.5,LR,1703401553
406,bintulu,3.1667,113.0333,32.23,66,40,3.09,MY,1703401553
407,byumba,-1.5763,30.0675,17.11,73,83,1.17,RW,1703401553
408,nelson bay,-32.7167,152.15,24.5,73,65,1.34,AU,1703401554
409,akrehamn,59.2667,5.1833,3.56,86,100,9.77,NO,1703401554
410,ornskoldsvik,63.2909,18.7153,-6.47,86,100,3.6,SE,1703401554
411,isla vista,34.4133,-119.861,14.69,91,40,0.89,US,1703401554
412,fort mcmurray,56.7268,-111.381,-7.23,73,0,6.17,CA,1703401555
413,tarawa,1.419,172.984,29.05,84,75,3.09,KI,1703401555
414,colares,38.7992,-9.4469,10.18,81,73,4.47,PT,1703401555
415,hajin,34.6927,40.827,15.64,62,3,4.83,SY,1703401556
416,floro,61.5996,5.0328,0.98,60,100,5.14,NO,1703401556
417,bonthe,7.5264,-12.505,22.52,70,17,1.49,SL,1703401556
418,sona,45.4388,10.8255,6.85,100,15,1.54,IT,1703401556
419,la passe,45.5549,-0.8967,10.13,91,18,3.32,FR,1703401212
420,constitucion,-35.3333,-72.4167,13.06,77,0,0.92,CL,1703401557
421,port-gentil,-0.7193,8.7815,27.42,81,99,1.99,GA,1703401557
422,nagykanizsa,46.4535,16.991,1.77,82,100,1.27,HU,1703401557
423,lompoc,34.6391,-120.4579,14.32,86,100,0.0,US,1703401177
424,porto velho,-8.7619,-63.9039,25.03,94,75,0.51,BR,1703401461
425,fale old settlement,-9.3852,-171.2468,28.6,79,100,4.32,TK,1703401178
426,prince rupert,54.3161,-130.3201,8.05,62,100,22.12,CA,1703401165
427,sipocot,13.768,122.9762,28.6,72,92,5.14,PH,1703401559
428,acapulco de juarez,16.8634,-99.8901,23.9,88,20,1.03,MX,1703401559
429,campo gallo,-26.5833,-62.85,24.59,85,23,2.58,AR,1703401560
430,manzanillo,20.3433,-77.1167,20.33,92,67,3.92,CU,1703401047
431,mersing,2.4312,103.8405,29.95,79,40,1.54,MY,1703401560
432,nivala,63.9167,24.9667,-0.18,91,88,4.01,FI,1703401561
433,port douglas,-16.4833,145.4667,28.73,78,99,2.62,AU,1703401141
434,malavalli,12.3833,77.0833,28.92,38,67,3.9,IN,1703401562
435,griffith,41.5284,-87.4237,10.5,96,100,1.54,US,1703401562
436,takoradi,4.8845,-1.7554,26.56,80,100,0.37,GH,1703401563
437,vilyuysk,63.7553,121.6247,-20.56,100,98,0.89,RU,1703401564
438,joaquin v. gonzalez,-25.0833,-64.1833,23.76,92,60,1.33,AR,1703401565
439,susuman,62.7833,148.1667,-43.23,100,95,0.28,RU,1703401565
440,la ronge,55.1001,-105.2842,-4.86,68,0,4.12,CA,1703401135
441,mahibadhoo,3.7833,72.9667,28.12,76,37,5.64,MV,1703401566
442,mont-de-marsan,44.0,-0.6667,8.9,43,100,0.45,FR,1703401566
443,mary,37.0,62.5,22.49,31,0,14.91,TM,1703401567
444,gazipasa,36.2694,32.3179,12.05,62,0,3.09,TR,1703401567
445,al majaridah,19.1236,41.9111,26.54,65,0,2.06,SA,1703401567
446,labuan bajo,-8.4964,119.8877,29.23,74,100,1.71,ID,1703401568
447,arteche,12.2645,125.4048,27.06,86,24,3.69,PH,1703401196
448,bubaque,11.2833,-15.8333,25.18,48,21,4.91,GW,1703401569
449,malango,-2.9627,119.9001,24.77,90,94,0.76,ID,1703401569
450,san cristobal,7.7669,-72.225,19.23,91,69,0.82,VE,1703401569
451,happy valley-goose bay,53.3168,-60.3315,-0.83,69,75,6.69,CA,1703401215
452,bac lieu,9.285,105.7244,29.56,63,78,9.33,VN,1703401571
453,vlore,40.4667,19.4897,12.64,77,5,3.56,AL,1703401571
454,vorkuta,67.5,64.0,-17.33,97,37,2.22,RU,1703401571
455,ust'-uda,54.1742,103.0304,-7.23,95,99,1.2,RU,1703401571
456,newman,37.3138,-121.0208,8.49,89,15,1.28,US,1703401161
457,hafar al-batin,28.4328,45.9708,17.32,72,0,2.57,SA,1703401572
458,palmer,42.1584,-72.3287,2.53,76,100,0.0,US,1703401573
459,amursk,50.2261,136.8994,-26.12,96,77,2.74,RU,1703401573
460,matoury,4.8483,-52.3317,24.98,94,75,3.6,GF,1703401573
461,sijunjung,-0.6876,100.9537,30.12,77,100,0.64,ID,1703401574
462,dali,25.7,100.1833,11.26,79,90,1.48,CN,1703401574
463,kharovsk,59.9642,40.1912,-2.02,96,100,4.71,RU,1703401575
464,wanning,18.8003,110.3967,19.53,58,100,8.13,CN,1703401576
465,aqsay,51.1678,52.995,1.95,85,100,2.32,KZ,1703401576
466,spring creek,40.7266,-115.5859,-7.06,48,1,1.23,US,1703401554
467,mata-utu,-13.2816,-176.1745,28.24,72,95,7.49,WF,1703401577
468,daru,-9.0763,143.2092,27.11,86,100,4.74,PG,1703401141
469,kaga bandoro,6.9896,19.1874,26.9,24,59,2.33,CF,1703401578
470,felipe carrillo puerto,19.5833,-88.05,19.84,94,37,0.92,MX,1703401578
471,lockwood,45.8191,-108.4149,-2.63,78,100,4.12,US,1703401578
472,merizo village,13.2658,144.6691,29.31,81,9,8.94,GU,1703401579
473,bajina basta,43.9708,19.5675,5.93,90,100,2.16,RS,1703401580
474,paragominas,-2.9667,-47.4833,22.24,97,45,1.25,BR,1703401335
475,angaur state,6.906,134.13,28.21,80,28,5.54,PW,1703401581
476,beyneu,45.3167,55.2,4.16,91,99,9.67,KZ,1703401581
477,bathsheba,13.2167,-59.5167,26.34,94,20,3.09,BB,1703401582
478,gunjur,13.2019,-16.7339,19.04,72,47,2.57,GM,1703401582
479,xilin hot,43.9667,116.0333,-15.2,87,12,4.85,CN,1703401582
480,micheweni,-4.9667,39.8333,29.57,69,80,2.42,TZ,1703401583
481,pitimbu,-7.4706,-34.8086,24.33,79,100,3.35,BR,1703401583
482,ngaoundere,7.3167,13.5833,20.7,26,91,2.53,CM,1703401584
483,barcelos,41.5388,-8.6151,7.73,68,55,1.79,PT,1703401584
484,labrador city,52.9463,-66.9114,-3.05,93,100,6.17,CA,1703401585
485,masterton,-40.9597,175.6575,18.82,84,100,2.96,NZ,1703401585
486,machico,32.7,-16.7667,17.06,71,20,2.06,PT,1703401585
487,kozhevnikovo,56.2589,83.9714,-2.26,94,100,2.27,RU,1703401586
488,camacupa,-12.0167,17.4833,20.79,83,82,0.49,AO,1703401256
489,ugoofaaru,5.6667,73.0,28.21,75,72,6.83,MV,1703401586
490,villa gesell,-37.2639,-56.973,18.36,92,9,3.02,AR,1703401017
491,ghadamis,30.1337,9.5007,10.63,54,0,1.61,LY,1703401355
492,nizhneudinsk,54.9076,99.0276,-2.19,91,29,0.55,RU,1703401588
493,tapa,59.2606,25.9586,-1.33,97,100,2.39,EE,1703401588
494,zaragoza,41.6561,-0.8773,6.25,71,20,4.12,ES,1703401589
495,corumba,-19.0092,-57.6533,25.77,72,7,0.54,BR,1703401589
496,moyynkum,44.2914,72.9469,6.24,60,100,4.11,KZ,1703401590
497,severo-yeniseyskiy,60.3725,93.0408,-5.24,95,98,2.24,RU,1703401590
498,corinth,37.9407,22.9573,15.5,64,72,4.07,GR,1703401590
499,aasiaat,68.7098,-52.8699,-15.73,70,100,3.16,GL,1703401248
500,cockburn town,21.4612,-71.1419,24.65,71,0,6.5,TC,1703401591
501,mataundh,25.45,80.15,23.68,28,0,1.77,IN,1703401591
502,forster,-32.1667,152.5167,20.2,86,53,2.02,AU,1703401592
503,north bay,46.3168,-79.4663,0.62,93,100,2.06,CA,1703401592
504,kerikeri,-35.2268,173.9474,19.59,88,100,2.2,NZ,1703401186
505,bati,11.1833,40.0167,21.78,49,47,2.28,ET,1703401593
506,maceio,-9.6658,-35.7353,23.69,100,75,3.09,BR,1703401593
507,terbanggi besar,-4.8667,105.2333,34.26,48,100,1.74,ID,1703401594
508,coaldale,49.7167,-112.6185,-9.66,85,0,4.63,CA,1703401594
509,goulburn,-34.75,149.7167,17.66,83,96,1.34,AU,1703401594
510,albertina,-22.2008,-46.6158,17.85,95,100,1.22,BR,1703401595
511,vadso,70.0744,29.7487,1.09,86,75,8.23,NO,1703401170
512,amboasary,-25.0333,46.3833,29.09,39,1,7.14,MG,1703401595
513,murun-kuren,49.6342,100.1625,-10.93,74,27,1.18,MN,1703401596
514,kantharalak,14.6406,104.6499,25.54,55,100,5.25,TH,1703401596
515,tobelo,1.7284,128.0095,29.17,69,97,3.38,ID,1703401528
516,sechura,-5.5569,-80.8222,21.97,79,84,4.82,PE,1703401597
517,papao,-17.75,-149.55,25.82,85,100,6.1,PF,1703401597
518,kununurra,-15.7667,128.7333,39.99,29,99,3.6,AU,1703401198
519,pangody,65.85,74.4859,-20.85,100,100,2.56,RU,1703401598
520,kargil,34.5667,76.1,-1.87,62,100,0.98,IN,1703401598
521,magadan,59.5667,150.8,-13.57,95,100,6.02,RU,1703401598
522,juybar,36.6412,52.9124,19.09,44,8,1.36,IR,1703401599
523,lagoa,39.05,-27.9833,15.67,68,100,2.5,PT,1703401600
524,illizi,26.4833,8.4667,5.89,30,0,1.92,DZ,1703401358
525,lazaro cardenas,17.9583,-102.2,23.42,89,23,1.67,MX,1703401600
526,meadow lake,34.8014,-106.5436,4.55,80,74,3.98,US,1703401600
527,sassandra,4.95,-6.0833,23.32,83,99,1.35,CI,1703401601
528,renfrew,55.872,-4.3925,10.08,84,75,7.72,GB,1703401601
529,bokhan,53.153,103.7714,-5.44,94,83,0.42,RU,1703401601
530,cadiz,36.5,-5.75,7.85,95,0,0.99,ES,1703401602
531,mendi,-6.1761,143.6513,17.02,96,100,0.88,PG,1703401602
532,horta,38.5333,-28.6333,17.23,76,100,7.15,PT,1703401602
533,kokopo,-4.352,152.2633,26.2,85,100,1.2,PG,1703401603
534,aden,12.7794,45.0367,25.26,77,97,5.73,YE,1703401603
535,lianhe,47.1333,129.2667,-13.74,92,100,0.52,CN,1703401604
536,qamdo,31.1667,97.2333,-2.11,13,100,1.21,CN,1703401184
537,natal,-5.795,-35.2094,24.12,94,40,2.06,BR,1703401127
538,walvis bay,-22.9575,14.5053,16.16,79,97,2.28,NA,1703401605
539,kachug,53.9606,105.8817,-6.44,97,100,0.98,RU,1703401606
540,puerto ayacucho,5.6639,-67.6236,24.36,90,98,1.41,VE,1703401606
541,tumayr,25.7039,45.868,17.34,60,91,3.64,SA,1703401606
542,waingapu,-9.6567,120.2641,30.08,71,100,3.63,ID,1703401406
543,turpan,42.9333,89.1667,-0.75,29,84,0.95,CN,1703401607
544,namtsy,62.7161,129.6658,-33.26,98,100,1.43,RU,1703401607
545,puerto deseado,-47.7503,-65.8938,14.94,52,100,5.17,AR,1703401308
546,belvedere marittimo,39.6179,15.8617,13.35,78,84,2.22,IT,1703401608
547,gamba,-2.65,10.0,26.84,84,100,1.06,GA,1703401609
548,penzance,50.1186,-5.5371,12.65,91,100,13.12,GB,1703401609
549,mastacani,45.7833,28.0333,2.04,56,55,4.67,RO,1703401609
550,murghob,38.1702,73.9667,-6.48,57,65,1.23,TJ,1703401609
551,stephenville,32.2207,-98.2023,17.44,100,100,4.12,US,1703401610
552,guerrero negro,27.9769,-114.0611,16.58,77,4,3.95,MX,1703401323
553,rabaul,-4.1967,152.1721,27.75,77,100,2.4,PG,1703401610
554,plainview,40.7765,-73.4673,5.92,79,100,1.54,US,1703401611
555,darab,28.7519,54.5444,15.62,34,0,2.31,IR,1703401611
556,saint-philippe,-21.3585,55.7679,31.17,77,100,1.34,RE,1703401091
557,elverum,60.8819,11.5623,-21.0,100,95,0.89,NO,1703401611
558,mossel bay,-34.1831,22.146,21.46,72,8,3.12,ZA,1703401612
559,port saint john's,-31.6229,29.5448,23.98,88,90,4.8,ZA,1703401175
560,pontes e lacerda,-15.2261,-59.3353,22.32,97,100,0.92,BR,1703401612
561,las terrenas,19.311,-69.5428,22.8,79,62,2.98,DO,1703401613
562,laranjal paulista,-23.0497,-47.8367,20.29,88,99,0.89,BR,1703401613
563,ar raqqah,35.95,39.0167,13.35,77,6,4.99,SY,1703401613
564,nizhneangarsk,55.7833,109.55,-11.67,90,100,1.79,RU,1703401172
565,cabo san lucas,22.8909,-109.9124,22.09,73,8,0.45,MX,1703401178
566,tazacorte,28.629,-17.9293,16.54,63,40,4.12,ES,1703401154
567,mandalgovi,45.7625,106.2708,-9.23,72,22,2.81,MN,1703401615
568,karratha,-20.7377,116.8463,25.88,78,0,9.51,AU,1703401238
569,at taj,24.2049,23.2857,11.85,39,0,1.42,LY,1703401149
570,markovo,57.3206,107.0881,-4.48,95,100,3.69,RU,1703401615
571,porto belo,-27.1578,-48.5531,23.42,97,1,2.28,BR,1703401616
572,tralee,52.2704,-9.7026,11.92,94,100,14.29,IE,1703401259
573,hanzhong,33.0728,107.0303,8.94,36,0,0.43,CN,1703401616
574,antsohihy,-14.8796,47.9875,31.03,59,100,2.12,MG,1703401617
575,katsuura,35.1333,140.3,11.01,60,100,6.86,JP,1703401143
576,hilo,19.7297,-155.09,21.25,92,75,1.54,US,1703401612
577,hailey,43.5196,-114.3153,-7.08,71,0,4.63,US,1703401618
578,cabedelo,-6.9811,-34.8339,24.37,77,100,3.47,BR,1703401618
579,lacin,40.7702,34.8984,5.05,91,100,5.39,TR,1703401618
580,mahina,-17.5065,-149.489,24.87,94,75,1.03,PF,1703401230
581,utena,55.5,25.6,-1.87,97,93,4.74,LT,1703401619
582,yorkton,51.2167,-102.4677,-1.09,80,100,6.17,CA,1703401527
583,buon ma thuot,12.6667,108.05,20.41,84,100,2.76,VN,1703401620
584,infantes,38.7367,-3.0122,5.01,58,0,0.63,ES,1703401620
